[
    {
        "lat": 33.52,
        "long": -86.8,
        "name": "Birmingham",
        "state": "AL",
        "country": "US",
        "pop": 212461
    },
    {
        "lat": 34.73,
        "long": -86.59,
        "name": "Huntsville",
        "state": "AL",
        "country": "US",
        "pop": 190582
    },
    {
        "lat": 30.69,
        "long": -88.04,
        "name": "Mobile",
        "state": "AL",
        "country": "US",
        "pop": 194288
    },
    {
        "lat": 32.37,
        "long": -86.3,
        "name": "Montgomery",
        "state": "AL",
        "country": "US",
        "pop": 200602
    },
    {
        "lat": 34.75,
        "long": -92.29,
        "name": "Little Rock",
        "state": "AR",
        "country": "US",
        "pop": 197992
    },
    {
        "lat": 38.9,
        "long": -77.04,
        "name": "Washington, D.C.",
        "state": "DC",
        "country": "US",
        "pop": 601723
    },
    {
        "lat": 27.94,
        "long": -82.29,
        "name": "Brandon",
        "state": "FL",
        "country": "US",
        "pop": 103483
    },
    {
        "lat": 26.56,
        "long": -81.95,
        "name": "Cape Coral",
        "state": "FL",
        "country": "US",
        "pop": 175229
    },
    {
        "lat": 27.97,
        "long": -82.8,
        "name": "Clearwater",
        "state": "FL",
        "country": "US",
        "pop": 113003
    },
    {
        "lat": 26.27,
        "long": -80.27,
        "name": "Coral Springs",
        "state": "FL",
        "country": "US",
        "pop": 129485
    },
    {
        "lat": 26.06,
        "long": -80.23,
        "name": "Davie",
        "state": "FL",
        "country": "US",
        "pop": 100882
    },
    {
        "lat": 26.12,
        "long": -80.14,
        "name": "Fort Lauderdale",
        "state": "FL",
        "country": "US",
        "pop": 178590
    },
    {
        "lat": 29.65,
        "long": -82.32,
        "name": "Gainesville",
        "state": "FL",
        "country": "US",
        "pop": 130128
    },
    {
        "lat": 25.86,
        "long": -80.28,
        "name": "Hialeah",
        "state": "FL",
        "country": "US",
        "pop": 237069
    },
    {
        "lat": 26.01,
        "long": -80.15,
        "name": "Hollywood",
        "state": "FL",
        "country": "US",
        "pop": 149728
    },
    {
        "lat": 30.33,
        "long": -81.66,
        "name": "Jacksonville",
        "state": "FL",
        "country": "US",
        "pop": 868031
    },
    {
        "lat": 28.04,
        "long": -81.95,
        "name": "Lakeland",
        "state": "FL",
        "country": "US",
        "pop": 104401
    },
    {
        "lat": 25.77,
        "long": -80.19,
        "name": "Miami",
        "state": "FL",
        "country": "US",
        "pop": 441003
    },
    {
        "lat": 25.94,
        "long": -80.25,
        "name": "Miami Gardens",
        "state": "FL",
        "country": "US",
        "pop": 113187
    },
    {
        "lat": 25.99,
        "long": -80.23,
        "name": "Miramar",
        "state": "FL",
        "country": "US",
        "pop": 137132
    },
    {
        "lat": 28.54,
        "long": -81.38,
        "name": "Orlando",
        "state": "FL",
        "country": "US",
        "pop": 270934
    },
    {
        "lat": 28.03,
        "long": -80.59,
        "name": "Palm Bay",
        "state": "FL",
        "country": "US",
        "pop": 107888
    },
    {
        "lat": 26,
        "long": -80.22,
        "name": "Pembroke Pines",
        "state": "FL",
        "country": "US",
        "pop": 166611
    },
    {
        "lat": 26.24,
        "long": -80.12,
        "name": "Pompano Beach",
        "state": "FL",
        "country": "US",
        "pop": 107762
    },
    {
        "lat": 27.29,
        "long": -80.35,
        "name": "Port Saint Lucie",
        "state": "FL",
        "country": "US",
        "pop": 164603
    },
    {
        "lat": 27.77,
        "long": -82.68,
        "name": "St. Petersburg",
        "state": "FL",
        "country": "US",
        "pop": 257083
    },
    {
        "lat": 30.44,
        "long": -84.28,
        "name": "Tallahassee",
        "state": "FL",
        "country": "US",
        "pop": 189907
    },
    {
        "lat": 27.95,
        "long": -82.46,
        "name": "Tampa",
        "state": "FL",
        "country": "US",
        "pop": 369075
    },
    {
        "lat": 26.72,
        "long": -80.05,
        "name": "West Palm Beach",
        "state": "FL",
        "country": "US",
        "pop": 106779
    },
    {
        "lat": 33.96,
        "long": -83.38,
        "name": "Athens",
        "state": "GA",
        "country": "US",
        "pop": 116714
    },
    {
        "lat": 33.75,
        "long": -84.39,
        "name": "Atlanta",
        "state": "GA",
        "country": "US",
        "pop": 463878
    },
    {
        "lat": 32.46,
        "long": -84.99,
        "name": "Columbus",
        "state": "GA",
        "country": "US",
        "pop": 200579
    },
    {
        "lat": 33.92,
        "long": -84.38,
        "name": "Sandy Springs",
        "state": "GA",
        "country": "US",
        "pop": 105330
    },
    {
        "lat": 32.08,
        "long": -81.1,
        "name": "Savannah",
        "state": "GA",
        "country": "US",
        "pop": 145674
    },
    {
        "lat": 39.8,
        "long": -89.64,
        "name": "Springfield",
        "state": "IL",
        "country": "US",
        "pop": 116565
    },
    {
        "lat": 37.97,
        "long": -87.56,
        "name": "Evansville",
        "state": "IN",
        "country": "US",
        "pop": 119943
    },
    {
        "lat": 39.77,
        "long": -86.16,
        "name": "Indianapolis",
        "state": "IN",
        "country": "US",
        "pop": 829718
    },
    {
        "lat": 39.11,
        "long": -94.63,
        "name": "Kansas City",
        "state": "KS",
        "country": "US",
        "pop": 151306
    },
    {
        "lat": 38.88,
        "long": -94.82,
        "name": "Olathe",
        "state": "KS",
        "country": "US",
        "pop": 134305
    },
    {
        "lat": 38.98,
        "long": -94.67,
        "name": "Overland Park",
        "state": "KS",
        "country": "US",
        "pop": 186515
    },
    {
        "lat": 39.05,
        "long": -95.68,
        "name": "Topeka",
        "state": "KS",
        "country": "US",
        "pop": 127265
    },
    {
        "lat": 37.69,
        "long": -97.34,
        "name": "Wichita",
        "state": "KS",
        "country": "US",
        "pop": 389965
    },
    {
        "lat": 38.46,
        "long": -82.69,
        "name": "Ironville",
        "state": "KY",
        "country": "US",
        "pop": 288649
    },
    {
        "lat": 37.99,
        "long": -84.48,
        "name": "Lexington",
        "state": "KY",
        "country": "US",
        "pop": 225366
    },
    {
        "lat": 38.05,
        "long": -84.46,
        "name": "Lexington-Fayette",
        "state": "KY",
        "country": "US",
        "pop": 314488
    },
    {
        "lat": 38.25,
        "long": -85.76,
        "name": "Louisville",
        "state": "KY",
        "country": "US",
        "pop": 243639
    },
    {
        "lat": 38.41,
        "long": -82.71,
        "name": "Meads",
        "state": "KY",
        "country": "US",
        "pop": 288649
    },
    {
        "lat": 30.44,
        "long": -91.19,
        "name": "Baton Rouge",
        "state": "LA",
        "country": "US",
        "pop": 228590
    },
    {
        "lat": 30.22,
        "long": -92.02,
        "name": "Lafayette",
        "state": "LA",
        "country": "US",
        "pop": 127657
    },
    {
        "lat": 29.98,
        "long": -90.15,
        "name": "Metairie",
        "state": "LA",
        "country": "US",
        "pop": 138481
    },
    {
        "lat": 29.98,
        "long": -90.16,
        "name": "Metairie Terrace",
        "state": "LA",
        "country": "US",
        "pop": 142489
    },
    {
        "lat": 29.95,
        "long": -90.08,
        "name": "New Orleans",
        "state": "LA",
        "country": "US",
        "pop": 389617
    },
    {
        "lat": 32.53,
        "long": -93.75,
        "name": "Shreveport",
        "state": "LA",
        "country": "US",
        "pop": 197204
    },
    {
        "lat": 39.29,
        "long": -76.61,
        "name": "Baltimore",
        "state": "MD",
        "country": "US",
        "pop": 621849
    },
    {
        "lat": 38.95,
        "long": -92.33,
        "name": "Columbia",
        "state": "MO",
        "country": "US",
        "pop": 119108
    },
    {
        "lat": 39.1,
        "long": -94.36,
        "name": "East Independence",
        "state": "MO",
        "country": "US",
        "pop": 110675
    },
    {
        "lat": 39.09,
        "long": -94.42,
        "name": "Independence",
        "state": "MO",
        "country": "US",
        "pop": 117255
    },
    {
        "lat": 39.1,
        "long": -94.58,
        "name": "Kansas City",
        "state": "MO",
        "country": "US",
        "pop": 475378
    },
    {
        "lat": 38.63,
        "long": -90.2,
        "name": "St. Louis",
        "state": "MO",
        "country": "US",
        "pop": 315685
    },
    {
        "lat": 37.22,
        "long": -93.3,
        "name": "Springfield",
        "state": "MO",
        "country": "US",
        "pop": 166810
    },
    {
        "lat": 32.3,
        "long": -90.18,
        "name": "Jackson",
        "state": "MS",
        "country": "US",
        "pop": 170674
    },
    {
        "lat": 35.79,
        "long": -78.78,
        "name": "Cary",
        "state": "NC",
        "country": "US",
        "pop": 159769
    },
    {
        "lat": 35.23,
        "long": -80.84,
        "name": "Charlotte",
        "state": "NC",
        "country": "US",
        "pop": 827097
    },
    {
        "lat": 35.99,
        "long": -78.9,
        "name": "Durham",
        "state": "NC",
        "country": "US",
        "pop": 257636
    },
    {
        "lat": 35.05,
        "long": -78.88,
        "name": "Fayetteville",
        "state": "NC",
        "country": "US",
        "pop": 201963
    },
    {
        "lat": 36.07,
        "long": -79.79,
        "name": "Greensboro",
        "state": "NC",
        "country": "US",
        "pop": 285342
    },
    {
        "lat": 35.96,
        "long": -80.01,
        "name": "High Point",
        "state": "NC",
        "country": "US",
        "pop": 110268
    },
    {
        "lat": 35.77,
        "long": -78.64,
        "name": "Raleigh",
        "state": "NC",
        "country": "US",
        "pop": 451066
    },
    {
        "lat": 35.79,
        "long": -78.66,
        "name": "West Raleigh",
        "state": "NC",
        "country": "US",
        "pop": 338759
    },
    {
        "lat": 34.23,
        "long": -77.94,
        "name": "Wilmington",
        "state": "NC",
        "country": "US",
        "pop": 115933
    },
    {
        "lat": 36.1,
        "long": -80.24,
        "name": "Winston-Salem",
        "state": "NC",
        "country": "US",
        "pop": 241218
    },
    {
        "lat": 39.13,
        "long": -84.51,
        "name": "Cincinnati",
        "state": "OH",
        "country": "US",
        "pop": 296943
    },
    {
        "lat": 39.96,
        "long": -83,
        "name": "Columbus",
        "state": "OH",
        "country": "US",
        "pop": 850106
    },
    {
        "lat": 39.76,
        "long": -84.19,
        "name": "Dayton",
        "state": "OH",
        "country": "US",
        "pop": 140599
    },
    {
        "lat": 36.05,
        "long": -95.79,
        "name": "Broken Arrow",
        "state": "OK",
        "country": "US",
        "pop": 106563
    },
    {
        "lat": 35.22,
        "long": -97.44,
        "name": "Norman",
        "state": "OK",
        "country": "US",
        "pop": 120284
    },
    {
        "lat": 35.47,
        "long": -97.52,
        "name": "Oklahoma City",
        "state": "OK",
        "country": "US",
        "pop": 631346
    },
    {
        "lat": 36.15,
        "long": -95.99,
        "name": "Tulsa",
        "state": "OK",
        "country": "US",
        "pop": 403505
    },
    {
        "lat": 39.95,
        "long": -75.16,
        "name": "Philadelphia",
        "state": "PA",
        "country": "US",
        "pop": 1567442
    },
    {
        "lat": 32.78,
        "long": -79.93,
        "name": "Charleston",
        "state": "SC",
        "country": "US",
        "pop": 132609
    },
    {
        "lat": 34,
        "long": -81.03,
        "name": "Columbia",
        "state": "SC",
        "country": "US",
        "pop": 133803
    },
    {
        "lat": 32.85,
        "long": -79.97,
        "name": "North Charleston",
        "state": "SC",
        "country": "US",
        "pop": 108304
    },
    {
        "lat": 35.05,
        "long": -85.31,
        "name": "Chattanooga",
        "state": "TN",
        "country": "US",
        "pop": 176588
    },
    {
        "lat": 36.53,
        "long": -87.36,
        "name": "Clarksville",
        "state": "TN",
        "country": "US",
        "pop": 149176
    },
    {
        "lat": 35.07,
        "long": -85.25,
        "name": "East Chattanooga",
        "state": "TN",
        "country": "US",
        "pop": 154024
    },
    {
        "lat": 35.96,
        "long": -83.92,
        "name": "Knoxville",
        "state": "TN",
        "country": "US",
        "pop": 185291
    },
    {
        "lat": 35.15,
        "long": -90.05,
        "name": "Memphis",
        "state": "TN",
        "country": "US",
        "pop": 655770
    },
    {
        "lat": 35.85,
        "long": -86.39,
        "name": "Murfreesboro",
        "state": "TN",
        "country": "US",
        "pop": 126118
    },
    {
        "lat": 36.17,
        "long": -86.78,
        "name": "Nashville",
        "state": "TN",
        "country": "US",
        "pop": 530852
    },
    {
        "lat": 35.09,
        "long": -90.06,
        "name": "New South Memphis",
        "state": "TN",
        "country": "US",
        "pop": 641608
    },
    {
        "lat": 32.45,
        "long": -99.73,
        "name": "Abilene",
        "state": "TX",
        "country": "US",
        "pop": 121721
    },
    {
        "lat": 32.74,
        "long": -97.11,
        "name": "Arlington",
        "state": "TX",
        "country": "US",
        "pop": 388125
    },
    {
        "lat": 30.27,
        "long": -97.74,
        "name": "Austin",
        "state": "TX",
        "country": "US",
        "pop": 931830
    },
    {
        "lat": 30.09,
        "long": -94.1,
        "name": "Beaumont",
        "state": "TX",
        "country": "US",
        "pop": 118129
    },
    {
        "lat": 25.9,
        "long": -97.5,
        "name": "Brownsville",
        "state": "TX",
        "country": "US",
        "pop": 183887
    },
    {
        "lat": 32.95,
        "long": -96.89,
        "name": "Carrollton",
        "state": "TX",
        "country": "US",
        "pop": 133168
    },
    {
        "lat": 30.63,
        "long": -96.33,
        "name": "College Station",
        "state": "TX",
        "country": "US",
        "pop": 107889
    },
    {
        "lat": 27.8,
        "long": -97.4,
        "name": "Corpus Christi",
        "state": "TX",
        "country": "US",
        "pop": 324074
    },
    {
        "lat": 32.78,
        "long": -96.81,
        "name": "Dallas",
        "state": "TX",
        "country": "US",
        "pop": 1300092
    },
    {
        "lat": 33.21,
        "long": -97.13,
        "name": "Denton",
        "state": "TX",
        "country": "US",
        "pop": 131044
    },
    {
        "lat": 32.73,
        "long": -97.32,
        "name": "Fort Worth",
        "state": "TX",
        "country": "US",
        "pop": 833319
    },
    {
        "lat": 33.15,
        "long": -96.82,
        "name": "Frisco",
        "state": "TX",
        "country": "US",
        "pop": 154407
    },
    {
        "lat": 32.91,
        "long": -96.64,
        "name": "Garland",
        "state": "TX",
        "country": "US",
        "pop": 236897
    },
    {
        "lat": 32.75,
        "long": -97,
        "name": "Grand Prairie",
        "state": "TX",
        "country": "US",
        "pop": 187809
    },
    {
        "lat": 29.76,
        "long": -95.36,
        "name": "Houston",
        "state": "TX",
        "country": "US",
        "pop": 2296224
    },
    {
        "lat": 32.81,
        "long": -96.95,
        "name": "Irving",
        "state": "TX",
        "country": "US",
        "pop": 236607
    },
    {
        "lat": 31.12,
        "long": -97.73,
        "name": "Killeen",
        "state": "TX",
        "country": "US",
        "pop": 140806
    },
    {
        "lat": 27.51,
        "long": -99.51,
        "name": "Laredo",
        "state": "TX",
        "country": "US",
        "pop": 255473
    },
    {
        "lat": 33.05,
        "long": -96.99,
        "name": "Lewisville",
        "state": "TX",
        "country": "US",
        "pop": 104039
    },
    {
        "lat": 26.2,
        "long": -98.23,
        "name": "McAllen",
        "state": "TX",
        "country": "US",
        "pop": 140269
    },
    {
        "lat": 33.2,
        "long": -96.62,
        "name": "McKinney",
        "state": "TX",
        "country": "US",
        "pop": 162898
    },
    {
        "lat": 32.77,
        "long": -96.6,
        "name": "Mesquite",
        "state": "TX",
        "country": "US",
        "pop": 144788
    },
    {
        "lat": 29.69,
        "long": -95.21,
        "name": "Pasadena",
        "state": "TX",
        "country": "US",
        "pop": 153784
    },
    {
        "lat": 29.56,
        "long": -95.29,
        "name": "Pearland",
        "state": "TX",
        "country": "US",
        "pop": 108821
    },
    {
        "lat": 33.02,
        "long": -96.7,
        "name": "Plano",
        "state": "TX",
        "country": "US",
        "pop": 283558
    },
    {
        "lat": 32.95,
        "long": -96.73,
        "name": "Richardson",
        "state": "TX",
        "country": "US",
        "pop": 110815
    },
    {
        "lat": 30.51,
        "long": -97.68,
        "name": "Round Rock",
        "state": "TX",
        "country": "US",
        "pop": 115997
    },
    {
        "lat": 29.42,
        "long": -98.49,
        "name": "San Antonio",
        "state": "TX",
        "country": "US",
        "pop": 1469845
    },
    {
        "lat": 32.35,
        "long": -95.3,
        "name": "Tyler",
        "state": "TX",
        "country": "US",
        "pop": 103700
    },
    {
        "lat": 31.55,
        "long": -97.15,
        "name": "Waco",
        "state": "TX",
        "country": "US",
        "pop": 132356
    },
    {
        "lat": 33.91,
        "long": -98.49,
        "name": "Wichita Falls",
        "state": "TX",
        "country": "US",
        "pop": 104710
    },
    {
        "lat": 38.8,
        "long": -77.05,
        "name": "Alexandria",
        "state": "VA",
        "country": "US",
        "pop": 153511
    },
    {
        "lat": 38.88,
        "long": -77.1,
        "name": "Arlington",
        "state": "VA",
        "country": "US",
        "pop": 207627
    },
    {
        "lat": 36.82,
        "long": -76.27,
        "name": "Chesapeake",
        "state": "VA",
        "country": "US",
        "pop": 235429
    },
    {
        "lat": 37.04,
        "long": -76.33,
        "name": "East Hampton",
        "state": "VA",
        "country": "US",
        "pop": 147993
    },
    {
        "lat": 37.03,
        "long": -76.35,
        "name": "Hampton",
        "state": "VA",
        "country": "US",
        "pop": 136454
    },
    {
        "lat": 37.08,
        "long": -76.47,
        "name": "Newport News",
        "state": "VA",
        "country": "US",
        "pop": 182385
    },
    {
        "lat": 36.85,
        "long": -76.29,
        "name": "Norfolk",
        "state": "VA",
        "country": "US",
        "pop": 246393
    },
    {
        "lat": 37.55,
        "long": -77.46,
        "name": "Richmond",
        "state": "VA",
        "country": "US",
        "pop": 220289
    },
    {
        "lat": 36.85,
        "long": -75.98,
        "name": "Virginia Beach",
        "state": "VA",
        "country": "US",
        "pop": 452745
    },
    {
        "lat": 41.76,
        "long": -72.69,
        "name": "Hartford",
        "state": "CT",
        "country": "US",
        "pop": 124006
    },
    {
        "lat": 41.31,
        "long": -72.93,
        "name": "New Haven",
        "state": "CT",
        "country": "US",
        "pop": 130322
    },
    {
        "lat": 41.14,
        "long": -73.54,
        "name": "North Stamford",
        "state": "CT",
        "country": "US",
        "pop": 121230
    },
    {
        "lat": 41.05,
        "long": -73.54,
        "name": "Stamford",
        "state": "CT",
        "country": "US",
        "pop": 128874
    },
    {
        "lat": 41.56,
        "long": -73.05,
        "name": "Waterbury",
        "state": "CT",
        "country": "US",
        "pop": 108802
    },
    {
        "lat": 42.01,
        "long": -91.64,
        "name": "Cedar Rapids",
        "state": "IA",
        "country": "US",
        "pop": 130405
    },
    {
        "lat": 41.52,
        "long": -90.58,
        "name": "Davenport",
        "state": "IA",
        "country": "US",
        "pop": 102582
    },
    {
        "lat": 41.6,
        "long": -93.61,
        "name": "Des Moines",
        "state": "IA",
        "country": "US",
        "pop": 210330
    },
    {
        "lat": 41.76,
        "long": -88.32,
        "name": "Aurora",
        "state": "IL",
        "country": "US",
        "pop": 200661
    },
    {
        "lat": 41.85,
        "long": -87.65,
        "name": "Chicago",
        "state": "IL",
        "country": "US",
        "pop": 2720546
    },
    {
        "lat": 42.04,
        "long": -88.28,
        "name": "Elgin",
        "state": "IL",
        "country": "US",
        "pop": 112111
    },
    {
        "lat": 41.53,
        "long": -88.08,
        "name": "Joliet",
        "state": "IL",
        "country": "US",
        "pop": 147861
    },
    {
        "lat": 41.79,
        "long": -88.15,
        "name": "Naperville",
        "state": "IL",
        "country": "US",
        "pop": 147100
    },
    {
        "lat": 40.72,
        "long": -89.58,
        "name": "North Peoria",
        "state": "IL",
        "country": "US",
        "pop": 113004
    },
    {
        "lat": 40.69,
        "long": -89.59,
        "name": "Peoria",
        "state": "IL",
        "country": "US",
        "pop": 115070
    },
    {
        "lat": 42.27,
        "long": -89.09,
        "name": "Rockford",
        "state": "IL",
        "country": "US",
        "pop": 148278
    },
    {
        "lat": 41.13,
        "long": -85.13,
        "name": "Fort Wayne",
        "state": "IN",
        "country": "US",
        "pop": 260326
    },
    {
        "lat": 41.68,
        "long": -86.25,
        "name": "South Bend",
        "state": "IN",
        "country": "US",
        "pop": 101516
    },
    {
        "lat": 42.36,
        "long": -71.06,
        "name": "Boston",
        "state": "MA",
        "country": "US",
        "pop": 667137
    },
    {
        "lat": 42.38,
        "long": -71.11,
        "name": "Cambridge",
        "state": "MA",
        "country": "US",
        "pop": 110402
    },
    {
        "lat": 42.63,
        "long": -71.32,
        "name": "Lowell",
        "state": "MA",
        "country": "US",
        "pop": 110699
    },
    {
        "lat": 42.33,
        "long": -71.05,
        "name": "South Boston",
        "state": "MA",
        "country": "US",
        "pop": 571281
    },
    {
        "lat": 42.1,
        "long": -72.59,
        "name": "Springfield",
        "state": "MA",
        "country": "US",
        "pop": 154341
    },
    {
        "lat": 42.26,
        "long": -71.8,
        "name": "Worcester",
        "state": "MA",
        "country": "US",
        "pop": 184815
    },
    {
        "lat": 42.28,
        "long": -83.74,
        "name": "Ann Arbor",
        "state": "MI",
        "country": "US",
        "pop": 117070
    },
    {
        "lat": 42.33,
        "long": -83.05,
        "name": "Detroit",
        "state": "MI",
        "country": "US",
        "pop": 677116
    },
    {
        "lat": 42.96,
        "long": -85.67,
        "name": "Grand Rapids",
        "state": "MI",
        "country": "US",
        "pop": 195097
    },
    {
        "lat": 42.73,
        "long": -84.56,
        "name": "Lansing",
        "state": "MI",
        "country": "US",
        "pop": 115056
    },
    {
        "lat": 42.58,
        "long": -83.03,
        "name": "Sterling Heights",
        "state": "MI",
        "country": "US",
        "pop": 132052
    },
    {
        "lat": 42.49,
        "long": -83.01,
        "name": "Warren",
        "state": "MI",
        "country": "US",
        "pop": 134056
    },
    {
        "lat": 44.98,
        "long": -93.26,
        "name": "Minneapolis",
        "state": "MN",
        "country": "US",
        "pop": 410939
    },
    {
        "lat": 44.02,
        "long": -92.47,
        "name": "Rochester",
        "state": "MN",
        "country": "US",
        "pop": 112225
    },
    {
        "lat": 44.94,
        "long": -93.09,
        "name": "Saint Paul",
        "state": "MN",
        "country": "US",
        "pop": 285068
    },
    {
        "lat": 46.88,
        "long": -96.79,
        "name": "Fargo",
        "state": "ND",
        "country": "US",
        "pop": 118523
    },
    {
        "lat": 40.8,
        "long": -96.67,
        "name": "Lincoln",
        "state": "NE",
        "country": "US",
        "pop": 277348
    },
    {
        "lat": 41.26,
        "long": -95.94,
        "name": "Omaha",
        "state": "NE",
        "country": "US",
        "pop": 443885
    },
    {
        "lat": 43,
        "long": -71.45,
        "name": "Manchester",
        "state": "NH",
        "country": "US",
        "pop": 110229
    },
    {
        "lat": 40.52,
        "long": -74.41,
        "name": "Edison",
        "state": "NJ",
        "country": "US",
        "pop": 102548
    },
    {
        "lat": 40.66,
        "long": -74.21,
        "name": "Elizabeth",
        "state": "NJ",
        "country": "US",
        "pop": 129007
    },
    {
        "lat": 40.73,
        "long": -74.08,
        "name": "Jersey City",
        "state": "NJ",
        "country": "US",
        "pop": 264290
    },
    {
        "lat": 40.74,
        "long": -74.17,
        "name": "Newark",
        "state": "NJ",
        "country": "US",
        "pop": 281944
    },
    {
        "lat": 40.92,
        "long": -74.17,
        "name": "Paterson",
        "state": "NJ",
        "country": "US",
        "pop": 147754
    },
    {
        "lat": 42.98,
        "long": -78.8,
        "name": "Amherst",
        "state": "NY",
        "country": "US",
        "pop": 122366
    },
    {
        "lat": 40.77,
        "long": -73.93,
        "name": "Astoria",
        "state": "NY",
        "country": "US",
        "pop": 150165
    },
    {
        "lat": 40.63,
        "long": -74,
        "name": "Borough Park",
        "state": "NY",
        "country": "US",
        "pop": 149248
    },
    {
        "lat": 40.85,
        "long": -73.87,
        "name": "The Bronx",
        "state": "NY",
        "country": "US",
        "pop": 1385108
    },
    {
        "lat": 40.65,
        "long": -73.95,
        "name": "Brooklyn",
        "state": "NY",
        "country": "US",
        "pop": 2300664
    },
    {
        "lat": 42.89,
        "long": -78.88,
        "name": "Buffalo",
        "state": "NY",
        "country": "US",
        "pop": 258071
    },
    {
        "lat": 40.69,
        "long": -73.92,
        "name": "Bushwick",
        "state": "NY",
        "country": "US",
        "pop": 112620
    },
    {
        "lat": 40.75,
        "long": -73.86,
        "name": "Corona",
        "state": "NY",
        "country": "US",
        "pop": 109698
    },
    {
        "lat": 40.65,
        "long": -73.93,
        "name": "East Flatbush",
        "state": "NY",
        "country": "US",
        "pop": 178464
    },
    {
        "lat": 40.67,
        "long": -73.88,
        "name": "East New York",
        "state": "NY",
        "country": "US",
        "pop": 173198
    },
    {
        "lat": 40.74,
        "long": -73.88,
        "name": "Elmhurst",
        "state": "NY",
        "country": "US",
        "pop": 113364
    },
    {
        "lat": 40.6,
        "long": -73.97,
        "name": "Gravesend",
        "state": "NY",
        "country": "US",
        "pop": 112229
    },
    {
        "lat": 40.81,
        "long": -73.95,
        "name": "Harlem",
        "state": "NY",
        "country": "US",
        "pop": 181259
    },
    {
        "lat": 40.69,
        "long": -73.81,
        "name": "Jamaica",
        "state": "NY",
        "country": "US",
        "pop": 216866
    },
    {
        "lat": 40.78,
        "long": -73.97,
        "name": "Manhattan",
        "state": "NY",
        "country": "US",
        "pop": 1487536
    },
    {
        "lat": 40.71,
        "long": -74.01,
        "name": "New York City",
        "state": "NY",
        "country": "US",
        "pop": 8175133
    },
    {
        "lat": 40.68,
        "long": -73.84,
        "name": "Queens",
        "state": "NY",
        "country": "US",
        "pop": 2272771
    },
    {
        "lat": 43.15,
        "long": -77.62,
        "name": "Rochester",
        "state": "NY",
        "country": "US",
        "pop": 209802
    },
    {
        "lat": 40.59,
        "long": -73.94,
        "name": "Sheepshead Bay",
        "state": "NY",
        "country": "US",
        "pop": 122534
    },
    {
        "lat": 40.56,
        "long": -74.14,
        "name": "Staten Island",
        "state": "NY",
        "country": "US",
        "pop": 468730
    },
    {
        "lat": 43.05,
        "long": -76.15,
        "name": "Syracuse",
        "state": "NY",
        "country": "US",
        "pop": 144142
    },
    {
        "lat": 40.85,
        "long": -73.94,
        "name": "Washington Heights",
        "state": "NY",
        "country": "US",
        "pop": 152613
    },
    {
        "lat": 40.93,
        "long": -73.9,
        "name": "Yonkers",
        "state": "NY",
        "country": "US",
        "pop": 201116
    },
    {
        "lat": 41.08,
        "long": -81.52,
        "name": "Akron",
        "state": "OH",
        "country": "US",
        "pop": 197542
    },
    {
        "lat": 41.5,
        "long": -81.7,
        "name": "Cleveland",
        "state": "OH",
        "country": "US",
        "pop": 388072
    },
    {
        "lat": 41.66,
        "long": -83.56,
        "name": "Toledo",
        "state": "OH",
        "country": "US",
        "pop": 279789
    },
    {
        "lat": 40.61,
        "long": -75.49,
        "name": "Allentown",
        "state": "PA",
        "country": "US",
        "pop": 120207
    },
    {
        "lat": 40.44,
        "long": -80,
        "name": "Pittsburgh",
        "state": "PA",
        "country": "US",
        "pop": 304391
    },
    {
        "lat": 41.82,
        "long": -71.41,
        "name": "Providence",
        "state": "RI",
        "country": "US",
        "pop": 179207
    },
    {
        "lat": 43.55,
        "long": -96.7,
        "name": "Sioux Falls",
        "state": "SD",
        "country": "US",
        "pop": 171544
    },
    {
        "lat": 44.52,
        "long": -88.02,
        "name": "Green Bay",
        "state": "WI",
        "country": "US",
        "pop": 105207
    },
    {
        "lat": 43.07,
        "long": -89.4,
        "name": "Madison",
        "state": "WI",
        "country": "US",
        "pop": 248951
    },
    {
        "lat": 43.04,
        "long": -87.91,
        "name": "Milwaukee",
        "state": "WI",
        "country": "US",
        "pop": 600155
    },
    {
        "lat": 41.18,
        "long": -73.19,
        "name": "Bridgeport",
        "state": "CT",
        "country": "US",
        "pop": 147629
    },
    {
        "lat": 33.31,
        "long": -111.84,
        "name": "Chandler",
        "state": "AZ",
        "country": "US",
        "pop": 260828
    },
    {
        "lat": 33.68,
        "long": -112.13,
        "name": "Deer Valley",
        "state": "AZ",
        "country": "US",
        "pop": 165656
    },
    {
        "lat": 33.35,
        "long": -111.79,
        "name": "Gilbert",
        "state": "AZ",
        "country": "US",
        "pop": 247542
    },
    {
        "lat": 33.54,
        "long": -112.19,
        "name": "Glendale",
        "state": "AZ",
        "country": "US",
        "pop": 240126
    },
    {
        "lat": 33.5,
        "long": -112.18,
        "name": "Maryvale",
        "state": "AZ",
        "country": "US",
        "pop": 208189
    },
    {
        "lat": 33.42,
        "long": -111.82,
        "name": "Mesa",
        "state": "AZ",
        "country": "US",
        "pop": 471825
    },
    {
        "lat": 33.58,
        "long": -112.24,
        "name": "Peoria",
        "state": "AZ",
        "country": "US",
        "pop": 171237
    },
    {
        "lat": 33.45,
        "long": -112.07,
        "name": "Phoenix",
        "state": "AZ",
        "country": "US",
        "pop": 1563025
    },
    {
        "lat": 33.51,
        "long": -111.9,
        "name": "Scottsdale",
        "state": "AZ",
        "country": "US",
        "pop": 236839
    },
    {
        "lat": 33.63,
        "long": -112.33,
        "name": "Surprise",
        "state": "AZ",
        "country": "US",
        "pop": 128422
    },
    {
        "lat": 33.41,
        "long": -111.91,
        "name": "Tempe",
        "state": "AZ",
        "country": "US",
        "pop": 175826
    },
    {
        "lat": 33.41,
        "long": -111.94,
        "name": "Tempe Junction",
        "state": "AZ",
        "country": "US",
        "pop": 158368
    },
    {
        "lat": 32.22,
        "long": -110.93,
        "name": "Tucson",
        "state": "AZ",
        "country": "US",
        "pop": 531641
    },
    {
        "lat": 33.84,
        "long": -117.91,
        "name": "Anaheim",
        "state": "CA",
        "country": "US",
        "pop": 350742
    },
    {
        "lat": 38,
        "long": -121.81,
        "name": "Antioch",
        "state": "CA",
        "country": "US",
        "pop": 110542
    },
    {
        "lat": 35.37,
        "long": -119.02,
        "name": "Bakersfield",
        "state": "CA",
        "country": "US",
        "pop": 373640
    },
    {
        "lat": 37.87,
        "long": -122.27,
        "name": "Berkeley",
        "state": "CA",
        "country": "US",
        "pop": 120972
    },
    {
        "lat": 34.18,
        "long": -118.31,
        "name": "Burbank",
        "state": "CA",
        "country": "US",
        "pop": 105319
    },
    {
        "lat": 33.16,
        "long": -117.35,
        "name": "Carlsbad",
        "state": "CA",
        "country": "US",
        "pop": 113453
    },
    {
        "lat": 37.8,
        "long": -122.41,
        "name": "Chinatown",
        "state": "CA",
        "country": "US",
        "pop": 100574
    },
    {
        "lat": 32.64,
        "long": -117.08,
        "name": "Chula Vista",
        "state": "CA",
        "country": "US",
        "pop": 265757
    },
    {
        "lat": 36.83,
        "long": -119.7,
        "name": "Clovis",
        "state": "CA",
        "country": "US",
        "pop": 104180
    },
    {
        "lat": 37.98,
        "long": -122.03,
        "name": "Concord",
        "state": "CA",
        "country": "US",
        "pop": 128667
    },
    {
        "lat": 33.88,
        "long": -117.57,
        "name": "Corona",
        "state": "CA",
        "country": "US",
        "pop": 164226
    },
    {
        "lat": 33.64,
        "long": -117.92,
        "name": "Costa Mesa",
        "state": "CA",
        "country": "US",
        "pop": 113204
    },
    {
        "lat": 37.71,
        "long": -122.46,
        "name": "Daly City",
        "state": "CA",
        "country": "US",
        "pop": 106562
    },
    {
        "lat": 33.94,
        "long": -118.13,
        "name": "Downey",
        "state": "CA",
        "country": "US",
        "pop": 114219
    },
    {
        "lat": 34.02,
        "long": -118.17,
        "name": "East Los Angeles",
        "state": "CA",
        "country": "US",
        "pop": 126496
    },
    {
        "lat": 32.79,
        "long": -116.96,
        "name": "El Cajon",
        "state": "CA",
        "country": "US",
        "pop": 103679
    },
    {
        "lat": 34.07,
        "long": -118.03,
        "name": "El Monte",
        "state": "CA",
        "country": "US",
        "pop": 116732
    },
    {
        "lat": 38.41,
        "long": -121.37,
        "name": "Elk Grove",
        "state": "CA",
        "country": "US",
        "pop": 166913
    },
    {
        "lat": 33.12,
        "long": -117.09,
        "name": "Escondido",
        "state": "CA",
        "country": "US",
        "pop": 151451
    },
    {
        "lat": 38.25,
        "long": -122.04,
        "name": "Fairfield",
        "state": "CA",
        "country": "US",
        "pop": 112970
    },
    {
        "lat": 34.09,
        "long": -117.44,
        "name": "Fontana",
        "state": "CA",
        "country": "US",
        "pop": 207460
    },
    {
        "lat": 37.55,
        "long": -121.99,
        "name": "Fremont",
        "state": "CA",
        "country": "US",
        "pop": 232206
    },
    {
        "lat": 36.75,
        "long": -119.77,
        "name": "Fresno",
        "state": "CA",
        "country": "US",
        "pop": 520052
    },
    {
        "lat": 33.87,
        "long": -117.93,
        "name": "Fullerton",
        "state": "CA",
        "country": "US",
        "pop": 140847
    },
    {
        "lat": 33.77,
        "long": -117.94,
        "name": "Garden Grove",
        "state": "CA",
        "country": "US",
        "pop": 175393
    },
    {
        "lat": 34.14,
        "long": -118.26,
        "name": "Glendale",
        "state": "CA",
        "country": "US",
        "pop": 201020
    },
    {
        "lat": 37.67,
        "long": -122.08,
        "name": "Hayward",
        "state": "CA",
        "country": "US",
        "pop": 158289
    },
    {
        "lat": 34.1,
        "long": -118.33,
        "name": "Hollywood",
        "state": "CA",
        "country": "US",
        "pop": 167664
    },
    {
        "lat": 33.66,
        "long": -118,
        "name": "Huntington Beach",
        "state": "CA",
        "country": "US",
        "pop": 201899
    },
    {
        "lat": 33.96,
        "long": -118.35,
        "name": "Inglewood",
        "state": "CA",
        "country": "US",
        "pop": 111666
    },
    {
        "lat": 33.67,
        "long": -117.82,
        "name": "Irvine",
        "state": "CA",
        "country": "US",
        "pop": 256927
    },
    {
        "lat": 34.06,
        "long": -118.3,
        "name": "Koreatown",
        "state": "CA",
        "country": "US",
        "pop": 124281
    },
    {
        "lat": 34.7,
        "long": -118.14,
        "name": "Lancaster",
        "state": "CA",
        "country": "US",
        "pop": 161103
    },
    {
        "lat": 33.77,
        "long": -118.19,
        "name": "Long Beach",
        "state": "CA",
        "country": "US",
        "pop": 474140
    },
    {
        "lat": 34.05,
        "long": -118.24,
        "name": "Los Angeles",
        "state": "CA",
        "country": "US",
        "pop": 3971883
    },
    {
        "lat": 37.64,
        "long": -121,
        "name": "Modesto",
        "state": "CA",
        "country": "US",
        "pop": 211266
    },
    {
        "lat": 33.94,
        "long": -117.23,
        "name": "Moreno Valley",
        "state": "CA",
        "country": "US",
        "pop": 204198
    },
    {
        "lat": 33.55,
        "long": -117.21,
        "name": "Murrieta",
        "state": "CA",
        "country": "US",
        "pop": 109830
    },
    {
        "lat": 33.9,
        "long": -118.08,
        "name": "Norwalk",
        "state": "CA",
        "country": "US",
        "pop": 107140
    },
    {
        "lat": 37.8,
        "long": -122.27,
        "name": "Oakland",
        "state": "CA",
        "country": "US",
        "pop": 419267
    },
    {
        "lat": 33.2,
        "long": -117.38,
        "name": "Oceanside",
        "state": "CA",
        "country": "US",
        "pop": 175691
    },
    {
        "lat": 34.06,
        "long": -117.65,
        "name": "Ontario",
        "state": "CA",
        "country": "US",
        "pop": 171214
    },
    {
        "lat": 33.79,
        "long": -117.85,
        "name": "Orange",
        "state": "CA",
        "country": "US",
        "pop": 140992
    },
    {
        "lat": 34.2,
        "long": -119.18,
        "name": "Oxnard",
        "state": "CA",
        "country": "US",
        "pop": 207254
    },
    {
        "lat": 34.58,
        "long": -118.12,
        "name": "Palmdale",
        "state": "CA",
        "country": "US",
        "pop": 158351
    },
    {
        "lat": 34.15,
        "long": -118.14,
        "name": "Pasadena",
        "state": "CA",
        "country": "US",
        "pop": 142250
    },
    {
        "lat": 34.06,
        "long": -117.75,
        "name": "Pomona",
        "state": "CA",
        "country": "US",
        "pop": 153266
    },
    {
        "lat": 34.11,
        "long": -117.59,
        "name": "Rancho Cucamonga",
        "state": "CA",
        "country": "US",
        "pop": 175236
    },
    {
        "lat": 34.11,
        "long": -117.37,
        "name": "Rialto",
        "state": "CA",
        "country": "US",
        "pop": 103132
    },
    {
        "lat": 37.94,
        "long": -122.35,
        "name": "Richmond",
        "state": "CA",
        "country": "US",
        "pop": 109708
    },
    {
        "lat": 33.95,
        "long": -117.4,
        "name": "Riverside",
        "state": "CA",
        "country": "US",
        "pop": 322424
    },
    {
        "lat": 38.75,
        "long": -121.29,
        "name": "Roseville",
        "state": "CA",
        "country": "US",
        "pop": 130269
    },
    {
        "lat": 38.58,
        "long": -121.49,
        "name": "Sacramento",
        "state": "CA",
        "country": "US",
        "pop": 490712
    },
    {
        "lat": 36.68,
        "long": -121.66,
        "name": "Salinas",
        "state": "CA",
        "country": "US",
        "pop": 157380
    },
    {
        "lat": 34.11,
        "long": -117.29,
        "name": "San Bernardino",
        "state": "CA",
        "country": "US",
        "pop": 216108
    },
    {
        "lat": 32.72,
        "long": -117.16,
        "name": "San Diego",
        "state": "CA",
        "country": "US",
        "pop": 1394928
    },
    {
        "lat": 37.77,
        "long": -122.42,
        "name": "San Francisco",
        "state": "CA",
        "country": "US",
        "pop": 864816
    },
    {
        "lat": 37.34,
        "long": -121.89,
        "name": "San Jose",
        "state": "CA",
        "country": "US",
        "pop": 1026908
    },
    {
        "lat": 37.56,
        "long": -122.33,
        "name": "San Mateo",
        "state": "CA",
        "country": "US",
        "pop": 103536
    },
    {
        "lat": 33.75,
        "long": -117.87,
        "name": "Santa Ana",
        "state": "CA",
        "country": "US",
        "pop": 335400
    },
    {
        "lat": 37.35,
        "long": -121.96,
        "name": "Santa Clara",
        "state": "CA",
        "country": "US",
        "pop": 126215
    },
    {
        "lat": 34.39,
        "long": -118.54,
        "name": "Santa Clarita",
        "state": "CA",
        "country": "US",
        "pop": 182371
    },
    {
        "lat": 34.95,
        "long": -120.44,
        "name": "Santa Maria",
        "state": "CA",
        "country": "US",
        "pop": 105093
    },
    {
        "lat": 38.44,
        "long": -122.71,
        "name": "Santa Rosa",
        "state": "CA",
        "country": "US",
        "pop": 174972
    },
    {
        "lat": 34.27,
        "long": -118.78,
        "name": "Simi Valley",
        "state": "CA",
        "country": "US",
        "pop": 126788
    },
    {
        "lat": 37.96,
        "long": -121.29,
        "name": "Stockton",
        "state": "CA",
        "country": "US",
        "pop": 305658
    },
    {
        "lat": 37.37,
        "long": -122.04,
        "name": "Sunnyvale",
        "state": "CA",
        "country": "US",
        "pop": 151754
    },
    {
        "lat": 33.49,
        "long": -117.15,
        "name": "Temecula",
        "state": "CA",
        "country": "US",
        "pop": 112011
    },
    {
        "lat": 34.17,
        "long": -118.84,
        "name": "Thousand Oaks",
        "state": "CA",
        "country": "US",
        "pop": 129339
    },
    {
        "lat": 33.84,
        "long": -118.34,
        "name": "Torrance",
        "state": "CA",
        "country": "US",
        "pop": 148475
    },
    {
        "lat": 34.14,
        "long": -118.35,
        "name": "Universal City",
        "state": "CA",
        "country": "US",
        "pop": 105000
    },
    {
        "lat": 34.44,
        "long": -118.61,
        "name": "Valencia",
        "state": "CA",
        "country": "US",
        "pop": 148456
    },
    {
        "lat": 38.1,
        "long": -122.26,
        "name": "Vallejo",
        "state": "CA",
        "country": "US",
        "pop": 121253
    },
    {
        "lat": 34.19,
        "long": -118.45,
        "name": "Van Nuys",
        "state": "CA",
        "country": "US",
        "pop": 136443
    },
    {
        "lat": 34.54,
        "long": -117.29,
        "name": "Victorville",
        "state": "CA",
        "country": "US",
        "pop": 122225
    },
    {
        "lat": 36.33,
        "long": -119.29,
        "name": "Visalia",
        "state": "CA",
        "country": "US",
        "pop": 130104
    },
    {
        "lat": 33.2,
        "long": -117.24,
        "name": "Vista",
        "state": "CA",
        "country": "US",
        "pop": 100890
    },
    {
        "lat": 34.07,
        "long": -117.94,
        "name": "West Covina",
        "state": "CA",
        "country": "US",
        "pop": 108484
    },
    {
        "lat": 39.8,
        "long": -105.09,
        "name": "Arvada",
        "state": "CO",
        "country": "US",
        "pop": 115368
    },
    {
        "lat": 39.73,
        "long": -104.83,
        "name": "Aurora",
        "state": "CO",
        "country": "US",
        "pop": 359407
    },
    {
        "lat": 39.58,
        "long": -104.88,
        "name": "Centennial",
        "state": "CO",
        "country": "US",
        "pop": 109741
    },
    {
        "lat": 38.83,
        "long": -104.82,
        "name": "Colorado Springs",
        "state": "CO",
        "country": "US",
        "pop": 456568
    },
    {
        "lat": 39.74,
        "long": -104.98,
        "name": "Denver",
        "state": "CO",
        "country": "US",
        "pop": 682545
    },
    {
        "lat": 39.7,
        "long": -105.08,
        "name": "Lakewood",
        "state": "CO",
        "country": "US",
        "pop": 152597
    },
    {
        "lat": 38.25,
        "long": -104.61,
        "name": "Pueblo",
        "state": "CO",
        "country": "US",
        "pop": 109412
    },
    {
        "lat": 39.87,
        "long": -104.97,
        "name": "Thornton",
        "state": "CO",
        "country": "US",
        "pop": 133451
    },
    {
        "lat": 39.84,
        "long": -105.04,
        "name": "Westminster",
        "state": "CO",
        "country": "US",
        "pop": 113130
    },
    {
        "lat": 35.08,
        "long": -106.65,
        "name": "Albuquerque",
        "state": "NM",
        "country": "US",
        "pop": 559121
    },
    {
        "lat": 32.31,
        "long": -106.78,
        "name": "Las Cruces",
        "state": "NM",
        "country": "US",
        "pop": 101643
    },
    {
        "lat": 36.03,
        "long": -115.24,
        "name": "Enterprise",
        "state": "NV",
        "country": "US",
        "pop": 108481
    },
    {
        "lat": 36.04,
        "long": -114.98,
        "name": "Henderson",
        "state": "NV",
        "country": "US",
        "pop": 285667
    },
    {
        "lat": 36.17,
        "long": -115.14,
        "name": "Las Vegas",
        "state": "NV",
        "country": "US",
        "pop": 623747
    },
    {
        "lat": 36.2,
        "long": -115.12,
        "name": "North Las Vegas",
        "state": "NV",
        "country": "US",
        "pop": 234807
    },
    {
        "lat": 36.1,
        "long": -115.15,
        "name": "Paradise",
        "state": "NV",
        "country": "US",
        "pop": 223167
    },
    {
        "lat": 39.53,
        "long": -119.81,
        "name": "Reno",
        "state": "NV",
        "country": "US",
        "pop": 241445
    },
    {
        "lat": 36.11,
        "long": -115.25,
        "name": "Spring Valley",
        "state": "NV",
        "country": "US",
        "pop": 178395
    },
    {
        "lat": 36.21,
        "long": -115.07,
        "name": "Sunrise Manor",
        "state": "NV",
        "country": "US",
        "pop": 189372
    },
    {
        "lat": 35.22,
        "long": -101.83,
        "name": "Amarillo",
        "state": "TX",
        "country": "US",
        "pop": 198645
    },
    {
        "lat": 31.76,
        "long": -106.49,
        "name": "El Paso",
        "state": "TX",
        "country": "US",
        "pop": 681124
    },
    {
        "lat": 33.58,
        "long": -101.86,
        "name": "Lubbock",
        "state": "TX",
        "country": "US",
        "pop": 249042
    },
    {
        "lat": 32,
        "long": -102.08,
        "name": "Midland",
        "state": "TX",
        "country": "US",
        "pop": 132950
    },
    {
        "lat": 31.85,
        "long": -102.37,
        "name": "Odessa",
        "state": "TX",
        "country": "US",
        "pop": 118968
    },
    {
        "lat": 31.46,
        "long": -100.44,
        "name": "San Angelo",
        "state": "TX",
        "country": "US",
        "pop": 100450
    },
    {
        "lat": 33.5,
        "long": -112.13,
        "name": "Alhambra",
        "state": "AZ",
        "country": "US",
        "pop": 127764
    },
    {
        "lat": 40.01,
        "long": -105.27,
        "name": "Boulder",
        "state": "CO",
        "country": "US",
        "pop": 107349
    },
    {
        "lat": 40.59,
        "long": -105.08,
        "name": "Fort Collins",
        "state": "CO",
        "country": "US",
        "pop": 161175
    },
    {
        "lat": 40.42,
        "long": -104.71,
        "name": "Greeley",
        "state": "CO",
        "country": "US",
        "pop": 100883
    },
    {
        "lat": 43.61,
        "long": -116.2,
        "name": "Boise",
        "state": "ID",
        "country": "US",
        "pop": 145987
    },
    {
        "lat": 45.78,
        "long": -108.5,
        "name": "Billings",
        "state": "MT",
        "country": "US",
        "pop": 110263
    },
    {
        "lat": 44.05,
        "long": -123.09,
        "name": "Eugene",
        "state": "OR",
        "country": "US",
        "pop": 163460
    },
    {
        "lat": 45.5,
        "long": -122.43,
        "name": "Gresham",
        "state": "OR",
        "country": "US",
        "pop": 110553
    },
    {
        "lat": 45.52,
        "long": -122.99,
        "name": "Hillsboro",
        "state": "OR",
        "country": "US",
        "pop": 102347
    },
    {
        "lat": 45.52,
        "long": -122.68,
        "name": "Portland",
        "state": "OR",
        "country": "US",
        "pop": 632309
    },
    {
        "lat": 44.94,
        "long": -123.04,
        "name": "Salem",
        "state": "OR",
        "country": "US",
        "pop": 164549
    },
    {
        "lat": 40.23,
        "long": -111.66,
        "name": "Provo",
        "state": "UT",
        "country": "US",
        "pop": 115264
    },
    {
        "lat": 40.76,
        "long": -111.89,
        "name": "Salt Lake City",
        "state": "UT",
        "country": "US",
        "pop": 192672
    },
    {
        "lat": 40.61,
        "long": -111.94,
        "name": "West Jordan",
        "state": "UT",
        "country": "US",
        "pop": 111946
    },
    {
        "lat": 40.69,
        "long": -112,
        "name": "West Valley City",
        "state": "UT",
        "country": "US",
        "pop": 136208
    },
    {
        "lat": 47.61,
        "long": -122.2,
        "name": "Bellevue",
        "state": "WA",
        "country": "US",
        "pop": 139820
    },
    {
        "lat": 47.98,
        "long": -122.2,
        "name": "Everett",
        "state": "WA",
        "country": "US",
        "pop": 108010
    },
    {
        "lat": 47.38,
        "long": -122.23,
        "name": "Kent",
        "state": "WA",
        "country": "US",
        "pop": 126952
    },
    {
        "lat": 47.48,
        "long": -122.22,
        "name": "Renton",
        "state": "WA",
        "country": "US",
        "pop": 100242
    },
    {
        "lat": 47.61,
        "long": -122.33,
        "name": "Seattle",
        "state": "WA",
        "country": "US",
        "pop": 684451
    },
    {
        "lat": 47.66,
        "long": -117.43,
        "name": "Spokane",
        "state": "WA",
        "country": "US",
        "pop": 213272
    },
    {
        "lat": 47.25,
        "long": -122.44,
        "name": "Tacoma",
        "state": "WA",
        "country": "US",
        "pop": 207948
    },
    {
        "lat": 45.64,
        "long": -122.66,
        "name": "Vancouver",
        "state": "WA",
        "country": "US",
        "pop": 172860
    },
    {
        "lat": 21.31,
        "long": -157.86,
        "name": "Honolulu",
        "state": "HI",
        "country": "US",
        "pop": 371657
    },
    {
        "lat": 61.22,
        "long": -149.9,
        "name": "Anchorage",
        "state": "AK",
        "country": "US",
        "pop": 298695
    },
    {
        "lat": 40.79,
        "long": -73.94,
        "name": "East Harlem",
        "state": "NY",
        "country": "US",
        "pop": 115921
    },
    {
        "lat": 40.65,
        "long": -74.01,
        "name": "Sunset Park",
        "state": "NY",
        "country": "US",
        "pop": 126000
    }
]
